[
  {
    "id": "e95eda9a",
    "cafe_name": "The Chestnut Tree",
    "caption": "Sat at a sunlit table, drinking a nice coffee",
    "address": "542 Barkly Street, West Footscray",
    "image": "/images/the-chestnut-tree-e95eda9a.jpg",
    "thumb": "/images/the-chestnut-tree-e95eda9a-thumb.jpg",
    "thumb_mobile": "/images/the-chestnut-tree-e95eda9a-thumb-mobile.jpg",
    "lat": -37.7974316,
    "lng": 144.8790253
  },
  {
    "id": "77944e12",
    "cafe_name": "Seddon Book Alley",
    "caption": "You're going to find treasures here",
    "address": "107 Victoria Street, Seddon",
    "image": "/images/seddon-book-alley-77944e12.jpg",
    "thumb": "/images/seddon-book-alley-77944e12-thumb.jpg",
    "thumb_mobile": "/images/seddon-book-alley-77944e12-thumb-mobile.jpg",
    "lat": -37.8061115,
    "lng": 144.8920447
  },
  {
    "id": "cfa56974",
    "cafe_name": "Sun Bookshop",
    "caption": "It connects right into a cool old cinema",
    "address": "10 Ballarat Street, Yarraville",
    "image": "/images/sun-bookshop-cfa56974.jpg",
    "thumb": "/images/sun-bookshop-cfa56974-thumb.jpg",
    "thumb_mobile": "/images/sun-bookshop-cfa56974-thumb-mobile.jpg",
    "lat": -37.8160627,
    "lng": 144.8908891
  },
  {
    "id": "c41503f1",
    "cafe_name": "Book and Paper",
    "caption": "They have some prints by local artists",
    "address": "36 Douglas Parade, Williamstown",
    "image": "/images/book-and-paper-c41503f1.jpg",
    "thumb": "/images/book-and-paper-c41503f1-thumb.jpg",
    "thumb_mobile": "/images/book-and-paper-c41503f1-thumb-mobile.jpg",
    "lat": -37.8577743,
    "lng": 144.897993
  },
  {
    "id": "73023d57",
    "cafe_name": "Readings Emporium",
    "caption": "",
    "address": "287 Lonsdale Street, Melbourne",
    "image": "/images/readings-emporium-73023d57.jpg",
    "thumb": "/images/readings-emporium-73023d57-thumb.jpg",
    "thumb_mobile": "/images/readings-emporium-73023d57-thumb-mobile.jpg",
    "lat": -37.8124868,
    "lng": 144.9639331
  },
  {
    "id": "f2605466",
    "cafe_name": "Jeffreys Books",
    "caption": "",
    "address": "140 Glenferrie Road Malvern",
    "image": "/images/jeffreys-books-f2605466.jpg",
    "thumb": "/images/jeffreys-books-f2605466-thumb.jpg",
    "thumb_mobile": "/images/jeffreys-books-f2605466-thumb-mobile.jpg",
    "lat": -37.8610386,
    "lng": 145.0287775
  },
  {
    "id": "252badd8",
    "cafe_name": "Readings Malvern",
    "caption": "",
    "address": "185 Glenferrie Road Malvern",
    "image": "/images/readings-malvern-252badd8.jpg",
    "thumb": "/images/readings-malvern-252badd8-thumb.jpg",
    "thumb_mobile": "/images/readings-malvern-252badd8-thumb-mobile.jpg",
    "lat": -37.859911,
    "lng": 145.0285333
  },
  {
    "id": "6d89ab89",
    "cafe_name": "The Leaf Bookshop",
    "caption": "",
    "address": "3/283 High Street Ashburton 3147",
    "image": "/images/the-leaf-bookshop-6d89ab89.jpg",
    "thumb": "/images/the-leaf-bookshop-6d89ab89-thumb.jpg",
    "thumb_mobile": "/images/the-leaf-bookshop-6d89ab89-thumb-mobile.jpg",
    "lat": -37.8639307,
    "lng": 145.0841172
  },
  {
    "id": "041b90e1",
    "cafe_name": "Readings Chadstone",
    "caption": "",
    "address": "1341 Dandenong Road Malvern East",
    "image": "/images/readings-chadstone-041b90e1.jpg",
    "thumb": "/images/readings-chadstone-041b90e1-thumb.jpg",
    "thumb_mobile": "/images/readings-chadstone-041b90e1-thumb-mobile.jpg",
    "lat": -37.887188,
    "lng": 145.0842821
  },
  {
    "id": "e3b4a0e9",
    "cafe_name": "The Little Bookroom",
    "caption": "",
    "address": "8 Village Avenue, Brunswick East",
    "image": "/images/the-little-bookroom-e3b4a0e9.jpg",
    "thumb": "/images/the-little-bookroom-e3b4a0e9-thumb.jpg",
    "thumb_mobile": "/images/the-little-bookroom-e3b4a0e9-thumb-mobile.jpg",
    "lat": -37.7718221,
    "lng": 144.9785267
  },
  {
    "id": "705f8953",
    "cafe_name": "Brunswick Bound",
    "caption": "",
    "address": "361 Sydney Road, Brunswick",
    "image": "/images/brunswick-bound-705f8953.jpg",
    "thumb": "/images/brunswick-bound-705f8953-thumb.jpg",
    "thumb_mobile": "/images/brunswick-bound-705f8953-thumb-mobile.jpg",
    "lat": -37.7691316,
    "lng": 144.961628
  },
  {
    "id": "b77687d1",
    "cafe_name": "Readings Carlton",
    "caption": "",
    "address": "309 Lygon Street, Carlton",
    "image": "/images/readings-carlton-b77687d1.jpg",
    "thumb": "/images/readings-carlton-b77687d1-thumb.jpg",
    "thumb_mobile": "/images/readings-carlton-b77687d1-thumb-mobile.jpg",
    "lat": -37.798052,
    "lng": 144.967187
  },
  {
    "id": "79d45c11",
    "cafe_name": "Through the Looking Glass Fitzroy",
    "caption": "",
    "address": "341 Brunswick Street, Fitzroy",
    "image": "/images/through-the-looking-glass-fitzroy-79d45c11.jpg",
    "thumb": "/images/through-the-looking-glass-fitzroy-79d45c11-thumb.jpg",
    "thumb_mobile": "/images/through-the-looking-glass-fitzroy-79d45c11-thumb-mobile.jpg",
    "lat": -37.7970038,
    "lng": 144.9784555
  },
  {
    "id": "9c80d577",
    "cafe_name": "Readings Kids",
    "caption": "",
    "address": "315 Lygon Street, Carlton",
    "image": "/images/readings-kids-9c80d577.jpg",
    "thumb": "/images/readings-kids-9c80d577-thumb.jpg",
    "thumb_mobile": "/images/readings-kids-9c80d577-thumb-mobile.jpg",
    "lat": -37.7979204,
    "lng": 144.9672054
  }
]